{
  "AD": {
    "lat": 0.0,
    "lng": 0.0,
    "name": "Andorra"
  },
  "AE": {
    "lat": 23.4241,
    "lng": 53.8478,
    "name": "United Arab Emirates"
  },
  "AF": {
    "lat": 33.9391,
    "lng": 67.71,
    "name": "Afghanistan"
  },
  "AG": {
    "lat": 0.0,
    "lng": 0.0,
    "name": "Antigua and Barbuda"
  },
  "AI": {
    "lat": 0.0,
    "lng": 0.0,
    "name": "Anguilla"
  },
  "AL": {
    "lat": 41.1533,
    "lng": 20.1683,
    "name": "Albania"
  },
  "AM": {
    "lat": 0.0,
    "lng": 0.0,
    "name": "Armenia"
  },
  "AO": {
    "lat": 0.0,
    "lng": 0.0,
    "name": "Angola"
  },
  "AQ": {
    "lat": 0.0,
    "lng": 0.0,
    "name": "Antarctica"
  },
  "AR": {
    "lat": -38.4161,
    "lng": -63.6167,
    "name": "Argentina"
  },
  "AS": {
    "lat": 0.0,
    "lng": 0.0,
    "name": "American Samoa"
  },
  "AT": {
    "lat": 47.5162,
    "lng": 14.5501,
    "name": "Austria"
  },
  "AU": {
    "lat": -25.2744,
    "lng": 133.7751,
    "name": "Australia"
  },
  "AW": {
    "lat": 0.0,
    "lng": 0.0,
    "name": "Aruba"
  },
  "AX": {
    "lat": 0.0,
    "lng": 0.0,
    "name": "\u00c5land Islands"
  },
  "AZ": {
    "lat": 0.0,
    "lng": 0.0,
    "name": "Azerbaijan"
  },
  "BA": {
    "lat": 0.0,
    "lng": 0.0,
    "name": "Bosnia and Herzegovina"
  },
  "BB": {
    "lat": 0.0,
    "lng": 0.0,
    "name": "Barbados"
  },
  "BD": {
    "lat": 0.0,
    "lng": 0.0,
    "name": "Bangladesh"
  },
  "BE": {
    "lat": 50.5039,
    "lng": 4.4699,
    "name": "Belgium"
  },
  "BF": {
    "lat": 0.0,
    "lng": 0.0,
    "name": "Burkina Faso"
  },
  "BG": {
    "lat": 0.0,
    "lng": 0.0,
    "name": "Bulgaria"
  },
  "BH": {
    "lat": 0.0,
    "lng": 0.0,
    "name": "Bahrain"
  },
  "BI": {
    "lat": 0.0,
    "lng": 0.0,
    "name": "Burundi"
  },
  "BJ": {
    "lat": 0.0,
    "lng": 0.0,
    "name": "Benin"
  },
  "BL": {
    "lat": 0.0,
    "lng": 0.0,
    "name": "Saint Barth\u00e9lemy"
  },
  "BM": {
    "lat": 0.0,
    "lng": 0.0,
    "name": "Bermuda"
  },
  "BN": {
    "lat": 0.0,
    "lng": 0.0,
    "name": "Brunei Darussalam"
  },
  "BO": {
    "lat": 0.0,
    "lng": 0.0,
    "name": "Bolivia, Plurinational State of"
  },
  "BQ": {
    "lat": 0.0,
    "lng": 0.0,
    "name": "Bonaire, Sint Eustatius and Saba"
  },
  "BR": {
    "lat": -14.235,
    "lng": -51.9253,
    "name": "Brazil"
  },
  "BS": {
    "lat": 0.0,
    "lng": 0.0,
    "name": "Bahamas"
  },
  "BT": {
    "lat": 0.0,
    "lng": 0.0,
    "name": "Bhutan"
  },
  "BV": {
    "lat": 0.0,
    "lng": 0.0,
    "name": "Bouvet Island"
  },
  "BW": {
    "lat": 0.0,
    "lng": 0.0,
    "name": "Botswana"
  },
  "BY": {
    "lat": 0.0,
    "lng": 0.0,
    "name": "Belarus"
  },
  "BZ": {
    "lat": 0.0,
    "lng": 0.0,
    "name": "Belize"
  },
  "CA": {
    "lat": 56.1304,
    "lng": -106.3468,
    "name": "Canada"
  },
  "CC": {
    "lat": 0.0,
    "lng": 0.0,
    "name": "Cocos (Keeling) Islands"
  },
  "CD": {
    "lat": 0.0,
    "lng": 0.0,
    "name": "Congo, The Democratic Republic of the"
  },
  "CF": {
    "lat": 0.0,
    "lng": 0.0,
    "name": "Central African Republic"
  },
  "CG": {
    "lat": 0.0,
    "lng": 0.0,
    "name": "Congo"
  },
  "CH": {
    "lat": 46.8182,
    "lng": 8.2275,
    "name": "Switzerland"
  },
  "CI": {
    "lat": 0.0,
    "lng": 0.0,
    "name": "C\u00f4te d'Ivoire"
  },
  "CK": {
    "lat": 0.0,
    "lng": 0.0,
    "name": "Cook Islands"
  },
  "CL": {
    "lat": -35.6751,
    "lng": -71.543,
    "name": "Chile"
  },
  "CM": {
    "lat": 0.0,
    "lng": 0.0,
    "name": "Cameroon"
  },
  "CN": {
    "lat": 35.8617,
    "lng": 104.1954,
    "name": "China"
  },
  "CO": {
    "lat": 4.5709,
    "lng": -74.2973,
    "name": "Colombia"
  },
  "CR": {
    "lat": 0.0,
    "lng": 0.0,
    "name": "Costa Rica"
  },
  "CU": {
    "lat": 0.0,
    "lng": 0.0,
    "name": "Cuba"
  },
  "CV": {
    "lat": 0.0,
    "lng": 0.0,
    "name": "Cabo Verde"
  },
  "CW": {
    "lat": 0.0,
    "lng": 0.0,
    "name": "Cura\u00e7ao"
  },
  "CX": {
    "lat": 0.0,
    "lng": 0.0,
    "name": "Christmas Island"
  },
  "CY": {
    "lat": 0.0,
    "lng": 0.0,
    "name": "Cyprus"
  },
  "CZ": {
    "lat": 49.8175,
    "lng": 15.473,
    "name": "Czechia"
  },
  "DE": {
    "lat": 51.1657,
    "lng": 10.4515,
    "name": "Germany"
  },
  "DJ": {
    "lat": 0.0,
    "lng": 0.0,
    "name": "Djibouti"
  },
  "DK": {
    "lat": 56.2639,
    "lng": 9.5018,
    "name": "Denmark"
  },
  "DM": {
    "lat": 0.0,
    "lng": 0.0,
    "name": "Dominica"
  },
  "DO": {
    "lat": 0.0,
    "lng": 0.0,
    "name": "Dominican Republic"
  },
  "DZ": {
    "lat": 28.0339,
    "lng": 1.6596,
    "name": "Algeria"
  },
  "EC": {
    "lat": 0.0,
    "lng": 0.0,
    "name": "Ecuador"
  },
  "EE": {
    "lat": 0.0,
    "lng": 0.0,
    "name": "Estonia"
  },
  "EG": {
    "lat": 26.8206,
    "lng": 30.8025,
    "name": "Egypt"
  },
  "EH": {
    "lat": 0.0,
    "lng": 0.0,
    "name": "Western Sahara"
  },
  "ER": {
    "lat": 0.0,
    "lng": 0.0,
    "name": "Eritrea"
  },
  "ES": {
    "lat": 40.4637,
    "lng": -3.7492,
    "name": "Spain"
  },
  "ET": {
    "lat": 0.0,
    "lng": 0.0,
    "name": "Ethiopia"
  },
  "FI": {
    "lat": 61.9241,
    "lng": 25.7482,
    "name": "Finland"
  },
  "FJ": {
    "lat": 0.0,
    "lng": 0.0,
    "name": "Fiji"
  },
  "FK": {
    "lat": 0.0,
    "lng": 0.0,
    "name": "Falkland Islands (Malvinas)"
  },
  "FM": {
    "lat": 0.0,
    "lng": 0.0,
    "name": "Micronesia, Federated States of"
  },
  "FO": {
    "lat": 0.0,
    "lng": 0.0,
    "name": "Faroe Islands"
  },
  "FR": {
    "lat": 46.6034,
    "lng": 1.8883,
    "name": "France"
  },
  "GA": {
    "lat": 0.0,
    "lng": 0.0,
    "name": "Gabon"
  },
  "GB": {
    "lat": 55.3781,
    "lng": -3.436,
    "name": "United Kingdom"
  },
  "GD": {
    "lat": 0.0,
    "lng": 0.0,
    "name": "Grenada"
  },
  "GE": {
    "lat": 0.0,
    "lng": 0.0,
    "name": "Georgia"
  },
  "GF": {
    "lat": 0.0,
    "lng": 0.0,
    "name": "French Guiana"
  },
  "GG": {
    "lat": 0.0,
    "lng": 0.0,
    "name": "Guernsey"
  },
  "GH": {
    "lat": 0.0,
    "lng": 0.0,
    "name": "Ghana"
  },
  "GI": {
    "lat": 0.0,
    "lng": 0.0,
    "name": "Gibraltar"
  },
  "GL": {
    "lat": 0.0,
    "lng": 0.0,
    "name": "Greenland"
  },
  "GM": {
    "lat": 0.0,
    "lng": 0.0,
    "name": "Gambia"
  },
  "GN": {
    "lat": 0.0,
    "lng": 0.0,
    "name": "Guinea"
  },
  "GP": {
    "lat": 0.0,
    "lng": 0.0,
    "name": "Guadeloupe"
  },
  "GQ": {
    "lat": 0.0,
    "lng": 0.0,
    "name": "Equatorial Guinea"
  },
  "GR": {
    "lat": 39.0742,
    "lng": 21.8243,
    "name": "Greece"
  },
  "GS": {
    "lat": 0.0,
    "lng": 0.0,
    "name": "South Georgia and the South Sandwich Islands"
  },
  "GT": {
    "lat": 0.0,
    "lng": 0.0,
    "name": "Guatemala"
  },
  "GU": {
    "lat": 0.0,
    "lng": 0.0,
    "name": "Guam"
  },
  "GW": {
    "lat": 0.0,
    "lng": 0.0,
    "name": "Guinea-Bissau"
  },
  "GY": {
    "lat": 0.0,
    "lng": 0.0,
    "name": "Guyana"
  },
  "HK": {
    "lat": 0.0,
    "lng": 0.0,
    "name": "Hong Kong"
  },
  "HM": {
    "lat": 0.0,
    "lng": 0.0,
    "name": "Heard Island and McDonald Islands"
  },
  "HN": {
    "lat": 0.0,
    "lng": 0.0,
    "name": "Honduras"
  },
  "HR": {
    "lat": 0.0,
    "lng": 0.0,
    "name": "Croatia"
  },
  "HT": {
    "lat": 0.0,
    "lng": 0.0,
    "name": "Haiti"
  },
  "HU": {
    "lat": 47.1625,
    "lng": 19.5033,
    "name": "Hungary"
  },
  "ID": {
    "lat": -0.7893,
    "lng": 113.9213,
    "name": "Indonesia"
  },
  "IE": {
    "lat": 53.4129,
    "lng": -8.2439,
    "name": "Ireland"
  },
  "IL": {
    "lat": 31.0461,
    "lng": 34.8516,
    "name": "Israel"
  },
  "IM": {
    "lat": 0.0,
    "lng": 0.0,
    "name": "Isle of Man"
  },
  "IN": {
    "lat": 20.5937,
    "lng": 78.9629,
    "name": "India"
  },
  "IO": {
    "lat": 0.0,
    "lng": 0.0,
    "name": "British Indian Ocean Territory"
  },
  "IQ": {
    "lat": 0.0,
    "lng": 0.0,
    "name": "Iraq"
  },
  "IR": {
    "lat": 0.0,
    "lng": 0.0,
    "name": "Iran, Islamic Republic of"
  },
  "IS": {
    "lat": 0.0,
    "lng": 0.0,
    "name": "Iceland"
  },
  "IT": {
    "lat": 41.8719,
    "lng": 12.5674,
    "name": "Italy"
  },
  "JE": {
    "lat": 0.0,
    "lng": 0.0,
    "name": "Jersey"
  },
  "JM": {
    "lat": 0.0,
    "lng": 0.0,
    "name": "Jamaica"
  },
  "JO": {
    "lat": 0.0,
    "lng": 0.0,
    "name": "Jordan"
  },
  "JP": {
    "lat": 36.2048,
    "lng": 138.2529,
    "name": "Japan"
  },
  "KE": {
    "lat": 0.0,
    "lng": 0.0,
    "name": "Kenya"
  },
  "KG": {
    "lat": 0.0,
    "lng": 0.0,
    "name": "Kyrgyzstan"
  },
  "KH": {
    "lat": 0.0,
    "lng": 0.0,
    "name": "Cambodia"
  },
  "KI": {
    "lat": 0.0,
    "lng": 0.0,
    "name": "Kiribati"
  },
  "KM": {
    "lat": 0.0,
    "lng": 0.0,
    "name": "Comoros"
  },
  "KN": {
    "lat": 0.0,
    "lng": 0.0,
    "name": "Saint Kitts and Nevis"
  },
  "KP": {
    "lat": 0.0,
    "lng": 0.0,
    "name": "Korea, Democratic People's Republic of"
  },
  "KR": {
    "lat": 35.9078,
    "lng": 127.7669,
    "name": "Korea, Republic of"
  },
  "KW": {
    "lat": 0.0,
    "lng": 0.0,
    "name": "Kuwait"
  },
  "KY": {
    "lat": 0.0,
    "lng": 0.0,
    "name": "Cayman Islands"
  },
  "KZ": {
    "lat": 0.0,
    "lng": 0.0,
    "name": "Kazakhstan"
  },
  "LA": {
    "lat": 0.0,
    "lng": 0.0,
    "name": "Lao People's Democratic Republic"
  },
  "LB": {
    "lat": 0.0,
    "lng": 0.0,
    "name": "Lebanon"
  },
  "LC": {
    "lat": 0.0,
    "lng": 0.0,
    "name": "Saint Lucia"
  },
  "LI": {
    "lat": 0.0,
    "lng": 0.0,
    "name": "Liechtenstein"
  },
  "LK": {
    "lat": 0.0,
    "lng": 0.0,
    "name": "Sri Lanka"
  },
  "LR": {
    "lat": 0.0,
    "lng": 0.0,
    "name": "Liberia"
  },
  "LS": {
    "lat": 0.0,
    "lng": 0.0,
    "name": "Lesotho"
  },
  "LT": {
    "lat": 0.0,
    "lng": 0.0,
    "name": "Lithuania"
  },
  "LU": {
    "lat": 0.0,
    "lng": 0.0,
    "name": "Luxembourg"
  },
  "LV": {
    "lat": 0.0,
    "lng": 0.0,
    "name": "Latvia"
  },
  "LY": {
    "lat": 0.0,
    "lng": 0.0,
    "name": "Libya"
  },
  "MA": {
    "lat": 0.0,
    "lng": 0.0,
    "name": "Morocco"
  },
  "MC": {
    "lat": 0.0,
    "lng": 0.0,
    "name": "Monaco"
  },
  "MD": {
    "lat": 0.0,
    "lng": 0.0,
    "name": "Moldova, Republic of"
  },
  "ME": {
    "lat": 0.0,
    "lng": 0.0,
    "name": "Montenegro"
  },
  "MF": {
    "lat": 0.0,
    "lng": 0.0,
    "name": "Saint Martin (French part)"
  },
  "MG": {
    "lat": 0.0,
    "lng": 0.0,
    "name": "Madagascar"
  },
  "MH": {
    "lat": 0.0,
    "lng": 0.0,
    "name": "Marshall Islands"
  },
  "MK": {
    "lat": 0.0,
    "lng": 0.0,
    "name": "North Macedonia"
  },
  "ML": {
    "lat": 0.0,
    "lng": 0.0,
    "name": "Mali"
  },
  "MM": {
    "lat": 0.0,
    "lng": 0.0,
    "name": "Myanmar"
  },
  "MN": {
    "lat": 0.0,
    "lng": 0.0,
    "name": "Mongolia"
  },
  "MO": {
    "lat": 0.0,
    "lng": 0.0,
    "name": "Macao"
  },
  "MP": {
    "lat": 0.0,
    "lng": 0.0,
    "name": "Northern Mariana Islands"
  },
  "MQ": {
    "lat": 0.0,
    "lng": 0.0,
    "name": "Martinique"
  },
  "MR": {
    "lat": 0.0,
    "lng": 0.0,
    "name": "Mauritania"
  },
  "MS": {
    "lat": 0.0,
    "lng": 0.0,
    "name": "Montserrat"
  },
  "MT": {
    "lat": 0.0,
    "lng": 0.0,
    "name": "Malta"
  },
  "MU": {
    "lat": 0.0,
    "lng": 0.0,
    "name": "Mauritius"
  },
  "MV": {
    "lat": 0.0,
    "lng": 0.0,
    "name": "Maldives"
  },
  "MW": {
    "lat": 0.0,
    "lng": 0.0,
    "name": "Malawi"
  },
  "MX": {
    "lat": 23.6345,
    "lng": -102.5528,
    "name": "Mexico"
  },
  "MY": {
    "lat": 4.2105,
    "lng": 101.9758,
    "name": "Malaysia"
  },
  "MZ": {
    "lat": 0.0,
    "lng": 0.0,
    "name": "Mozambique"
  },
  "NA": {
    "lat": 0.0,
    "lng": 0.0,
    "name": "Namibia"
  },
  "NC": {
    "lat": 0.0,
    "lng": 0.0,
    "name": "New Caledonia"
  },
  "NE": {
    "lat": 0.0,
    "lng": 0.0,
    "name": "Niger"
  },
  "NF": {
    "lat": 0.0,
    "lng": 0.0,
    "name": "Norfolk Island"
  },
  "NG": {
    "lat": 9.082,
    "lng": 8.6753,
    "name": "Nigeria"
  },
  "NI": {
    "lat": 0.0,
    "lng": 0.0,
    "name": "Nicaragua"
  },
  "NL": {
    "lat": 52.1326,
    "lng": 5.2913,
    "name": "Netherlands"
  },
  "NO": {
    "lat": 60.472,
    "lng": 8.4689,
    "name": "Norway"
  },
  "NP": {
    "lat": 0.0,
    "lng": 0.0,
    "name": "Nepal"
  },
  "NR": {
    "lat": 0.0,
    "lng": 0.0,
    "name": "Nauru"
  },
  "NU": {
    "lat": 0.0,
    "lng": 0.0,
    "name": "Niue"
  },
  "NZ": {
    "lat": -40.9006,
    "lng": 174.886,
    "name": "New Zealand"
  },
  "OM": {
    "lat": 0.0,
    "lng": 0.0,
    "name": "Oman"
  },
  "PA": {
    "lat": 0.0,
    "lng": 0.0,
    "name": "Panama"
  },
  "PE": {
    "lat": -9.19,
    "lng": -75.0152,
    "name": "Peru"
  },
  "PF": {
    "lat": 0.0,
    "lng": 0.0,
    "name": "French Polynesia"
  },
  "PG": {
    "lat": 0.0,
    "lng": 0.0,
    "name": "Papua New Guinea"
  },
  "PH": {
    "lat": 13.4125,
    "lng": 122.5621,
    "name": "Philippines"
  },
  "PK": {
    "lat": 0.0,
    "lng": 0.0,
    "name": "Pakistan"
  },
  "PL": {
    "lat": 51.9194,
    "lng": 19.1451,
    "name": "Poland"
  },
  "PM": {
    "lat": 0.0,
    "lng": 0.0,
    "name": "Saint Pierre and Miquelon"
  },
  "PN": {
    "lat": 0.0,
    "lng": 0.0,
    "name": "Pitcairn"
  },
  "PR": {
    "lat": 0.0,
    "lng": 0.0,
    "name": "Puerto Rico"
  },
  "PS": {
    "lat": 0.0,
    "lng": 0.0,
    "name": "Palestine, State of"
  },
  "PT": {
    "lat": 39.3999,
    "lng": -8.2245,
    "name": "Portugal"
  },
  "PW": {
    "lat": 0.0,
    "lng": 0.0,
    "name": "Palau"
  },
  "PY": {
    "lat": 0.0,
    "lng": 0.0,
    "name": "Paraguay"
  },
  "QA": {
    "lat": 0.0,
    "lng": 0.0,
    "name": "Qatar"
  },
  "RE": {
    "lat": 0.0,
    "lng": 0.0,
    "name": "R\u00e9union"
  },
  "RO": {
    "lat": 45.9432,
    "lng": 24.9668,
    "name": "Romania"
  },
  "RS": {
    "lat": 0.0,
    "lng": 0.0,
    "name": "Serbia"
  },
  "RU": {
    "lat": 61.524,
    "lng": 105.3188,
    "name": "Russian Federation"
  },
  "RW": {
    "lat": 0.0,
    "lng": 0.0,
    "name": "Rwanda"
  },
  "SA": {
    "lat": 23.8859,
    "lng": 45.0792,
    "name": "Saudi Arabia"
  },
  "SB": {
    "lat": 0.0,
    "lng": 0.0,
    "name": "Solomon Islands"
  },
  "SC": {
    "lat": 0.0,
    "lng": 0.0,
    "name": "Seychelles"
  },
  "SD": {
    "lat": 0.0,
    "lng": 0.0,
    "name": "Sudan"
  },
  "SE": {
    "lat": 60.1282,
    "lng": 18.6435,
    "name": "Sweden"
  },
  "SG": {
    "lat": 1.3521,
    "lng": 103.8198,
    "name": "Singapore"
  },
  "SH": {
    "lat": 0.0,
    "lng": 0.0,
    "name": "Saint Helena, Ascension and Tristan da Cunha"
  },
  "SI": {
    "lat": 0.0,
    "lng": 0.0,
    "name": "Slovenia"
  },
  "SJ": {
    "lat": 0.0,
    "lng": 0.0,
    "name": "Svalbard and Jan Mayen"
  },
  "SK": {
    "lat": 48.669,
    "lng": 19.699,
    "name": "Slovakia"
  },
  "SL": {
    "lat": 0.0,
    "lng": 0.0,
    "name": "Sierra Leone"
  },
  "SM": {
    "lat": 0.0,
    "lng": 0.0,
    "name": "San Marino"
  },
  "SN": {
    "lat": 0.0,
    "lng": 0.0,
    "name": "Senegal"
  },
  "SO": {
    "lat": 0.0,
    "lng": 0.0,
    "name": "Somalia"
  },
  "SR": {
    "lat": 0.0,
    "lng": 0.0,
    "name": "Suriname"
  },
  "SS": {
    "lat": 0.0,
    "lng": 0.0,
    "name": "South Sudan"
  },
  "ST": {
    "lat": 0.0,
    "lng": 0.0,
    "name": "Sao Tome and Principe"
  },
  "SV": {
    "lat": 0.0,
    "lng": 0.0,
    "name": "El Salvador"
  },
  "SX": {
    "lat": 0.0,
    "lng": 0.0,
    "name": "Sint Maarten (Dutch part)"
  },
  "SY": {
    "lat": 0.0,
    "lng": 0.0,
    "name": "Syrian Arab Republic"
  },
  "SZ": {
    "lat": 0.0,
    "lng": 0.0,
    "name": "Eswatini"
  },
  "TC": {
    "lat": 0.0,
    "lng": 0.0,
    "name": "Turks and Caicos Islands"
  },
  "TD": {
    "lat": 0.0,
    "lng": 0.0,
    "name": "Chad"
  },
  "TF": {
    "lat": 0.0,
    "lng": 0.0,
    "name": "French Southern Territories"
  },
  "TG": {
    "lat": 0.0,
    "lng": 0.0,
    "name": "Togo"
  },
  "TH": {
    "lat": 15.87,
    "lng": 100.9925,
    "name": "Thailand"
  },
  "TJ": {
    "lat": 0.0,
    "lng": 0.0,
    "name": "Tajikistan"
  },
  "TK": {
    "lat": 0.0,
    "lng": 0.0,
    "name": "Tokelau"
  },
  "TL": {
    "lat": 0.0,
    "lng": 0.0,
    "name": "Timor-Leste"
  },
  "TM": {
    "lat": 0.0,
    "lng": 0.0,
    "name": "Turkmenistan"
  },
  "TN": {
    "lat": 0.0,
    "lng": 0.0,
    "name": "Tunisia"
  },
  "TO": {
    "lat": 0.0,
    "lng": 0.0,
    "name": "Tonga"
  },
  "TR": {
    "lat": 38.9637,
    "lng": 35.2433,
    "name": "Turkey"
  },
  "TT": {
    "lat": 0.0,
    "lng": 0.0,
    "name": "Trinidad and Tobago"
  },
  "TV": {
    "lat": 0.0,
    "lng": 0.0,
    "name": "Tuvalu"
  },
  "TW": {
    "lat": 0.0,
    "lng": 0.0,
    "name": "Taiwan, Province of China"
  },
  "TZ": {
    "lat": 0.0,
    "lng": 0.0,
    "name": "Tanzania, United Republic of"
  },
  "UA": {
    "lat": 0.0,
    "lng": 0.0,
    "name": "Ukraine"
  },
  "UG": {
    "lat": 0.0,
    "lng": 0.0,
    "name": "Uganda"
  },
  "UM": {
    "lat": 0.0,
    "lng": 0.0,
    "name": "United States Minor Outlying Islands"
  },
  "US": {
    "lat": 37.0902,
    "lng": -95.7129,
    "name": "United States"
  },
  "UY": {
    "lat": 0.0,
    "lng": 0.0,
    "name": "Uruguay"
  },
  "UZ": {
    "lat": 0.0,
    "lng": 0.0,
    "name": "Uzbekistan"
  },
  "VA": {
    "lat": 0.0,
    "lng": 0.0,
    "name": "Holy See (Vatican City State)"
  },
  "VC": {
    "lat": 0.0,
    "lng": 0.0,
    "name": "Saint Vincent and the Grenadines"
  },
  "VE": {
    "lat": 0.0,
    "lng": 0.0,
    "name": "Venezuela, Bolivarian Republic of"
  },
  "VG": {
    "lat": 0.0,
    "lng": 0.0,
    "name": "Virgin Islands, British"
  },
  "VI": {
    "lat": 0.0,
    "lng": 0.0,
    "name": "Virgin Islands, U.S."
  },
  "VN": {
    "lat": 14.0583,
    "lng": 108.2772,
    "name": "Viet Nam"
  },
  "VU": {
    "lat": 0.0,
    "lng": 0.0,
    "name": "Vanuatu"
  },
  "WF": {
    "lat": 0.0,
    "lng": 0.0,
    "name": "Wallis and Futuna"
  },
  "WS": {
    "lat": 0.0,
    "lng": 0.0,
    "name": "Samoa"
  },
  "YE": {
    "lat": 0.0,
    "lng": 0.0,
    "name": "Yemen"
  },
  "YT": {
    "lat": 0.0,
    "lng": 0.0,
    "name": "Mayotte"
  },
  "ZA": {
    "lat": -30.5595,
    "lng": 22.9375,
    "name": "South Africa"
  },
  "ZM": {
    "lat": 0.0,
    "lng": 0.0,
    "name": "Zambia"
  },
  "ZW": {
    "lat": 0.0,
    "lng": 0.0,
    "name": "Zimbabwe"
  }
}